City_ID,City,Lat,Lng,Max Temp,Humidity,Cloudiness,Wind Speed,Country,Date
0,ribeira grande,38.5167,-28.7,20.19999999999999,64,40,6.26,PT,1684949654
1,ushuaia,-54.8,-68.3,4.789999999999964,75,75,4.63,AR,1684949654
2,yellowknife,62.456,-114.3525,11.269999999999982,76,75,3.6,CA,1684949659
3,mana,5.6592,-53.7767,28.180000000000007,81,87,4.03,GF,1684949659
4,petropavlovsk-kamchatsky,53.0452,158.6483,-0.6899999999999977,93,0,1.0,RU,1684949467
5,invercargill,-46.4,168.35,10.479999999999961,88,91,3.22,NZ,1684949660
6,nova sintra,14.8667,-24.7167,19.899999999999977,83,99,9.12,CV,1684949660
7,adamstown,-25.066,-130.1015,24.129999999999995,72,84,4.39,PN,1684949660
8,merizo village,13.2658,144.6691,26.289999999999964,94,100,30.58,GU,1684949660
9,tazovsky,67.4667,78.7,-1.1000000000000227,94,7,1.78,RU,1684949660
10,port-aux-francais,-49.35,70.2167,7.46999999999997,99,100,4.72,TF,1684949661
11,egilsstadir,65.2653,-14.3948,8.930000000000007,37,75,10.29,IS,1684949661
12,tanout,14.9709,8.8879,37.68000000000001,13,75,3.91,NE,1684949661
13,vilyuysk,63.7553,121.6247,1.8700000000000045,64,37,2.28,RU,1684949661
14,edinburgh of the seven seas,-37.0676,-12.3116,13.759999999999991,68,78,5.82,SH,1684949661
15,talnakh,69.4865,88.3972,-9.360000000000014,95,25,0.57,RU,1684949661
16,waitangi,-43.9535,-176.5597,11.089999999999975,57,33,5.72,NZ,1684949661
17,kudahuvadhoo,2.6708,72.8944,28.55000000000001,74,47,3.59,MV,1684949667
18,codrington,-38.2667,141.9667,15.039999999999964,49,60,8.43,AU,1684949667
19,iskateley,67.6803,53.1512,15.800000000000011,74,71,3.67,RU,1684949667
20,ryazhsk,53.7038,40.1109,16.930000000000007,86,69,1.72,RU,1684949667
21,bima,-8.4667,118.7167,23.21999999999997,95,28,1.84,ID,1684949667
22,hithadhoo,-0.6,73.0833,28.439999999999998,75,100,3.93,MV,1684949667
23,blackmans bay,-43.0167,147.3167,15.939999999999998,57,100,6.27,AU,1684949668
24,kingston,17.997,-76.7936,31.779999999999973,68,20,4.12,JM,1684949585
25,grytviken,-54.2811,-36.5092,0.6699999999999591,67,69,5.36,GS,1684949668
26,collierville,35.042,-89.6645,27.599999999999966,54,20,4.12,US,1684949528
27,sabang,5.8933,95.3214,28.870000000000005,76,49,6.57,ID,1684949668
28,estes park,40.3772,-105.5217,17.0,50,95,1.79,US,1684949416
29,pimentel,-6.8367,-79.9342,28.139999999999986,57,75,6.17,PE,1684949669
30,tamandare,-8.7597,-35.1047,25.91999999999996,89,18,2.9,BR,1684949669
31,bikenibeu village,1.3673,173.1241,25.20999999999998,87,100,1.22,KI,1684949669
32,albany,42.6001,-73.9662,24.24000000000001,54,43,4.38,US,1684949223
33,puerto ayora,-0.7393,-90.3518,27.50999999999999,87,41,3.58,EC,1684949671
34,chonchi,-42.6128,-73.8092,7.539999999999964,81,100,4.13,CL,1684949671
35,papao,-17.75,-149.55,24.80000000000001,76,9,1.81,PF,1684949671
36,okhotsk,59.3833,143.3,0.7799999999999727,97,100,2.47,RU,1684949671
37,cienfuegos,22.1461,-80.4356,29.060000000000002,74,75,4.63,CU,1684949672
38,fort st. john,56.2499,-120.8529,11.919999999999959,82,75,5.14,CA,1684949672
39,nikolayevsk-on-amure,53.1406,140.73,6.3700000000000045,98,100,1.03,RU,1684949672
40,saint-joseph,-21.3667,55.6167,22.189999999999998,88,79,1.97,RE,1684949672
41,tiksi,71.6872,128.8694,-10.610000000000014,100,36,0.95,RU,1684949672
42,badger,64.8,-147.5333,14.120000000000005,55,75,0.0,US,1684949673
43,brisas de zicatela,15.8369,-97.0419,32.26999999999998,66,75,4.12,MX,1684949673
44,mount isa,-20.7333,139.5,9.849999999999966,71,40,0.0,AU,1684949462
45,ilulissat,69.2167,-51.1,1.990000000000009,48,75,3.09,GL,1684949673
46,susuman,62.7833,148.1667,-1.1000000000000227,85,36,2.02,RU,1684949683
47,margaret river,-33.95,115.0667,14.069999999999993,69,80,5.13,AU,1684949684
48,lompoc,34.6391,-120.4579,17.639999999999986,79,100,4.02,US,1684949684
49,carnarvon,-24.8667,113.6333,19.569999999999993,81,67,8.19,AU,1684949684
50,lata,40.1629,-8.3327,21.539999999999964,50,73,2.54,PT,1684949684
51,colonia,50.9333,6.95,15.45999999999998,60,0,3.09,DE,1684949607
52,mount pearl,47.5166,-52.7813,12.449999999999989,68,20,3.09,CA,1684949684
53,alofi,-19.0595,-169.9187,23.91999999999996,83,83,2.06,NU,1684949684
54,pacific grove,36.6177,-121.9166,14.099999999999966,80,100,3.6,US,1684949685
55,sao mateus do maranhao,-4.0417,-44.475,29.20999999999998,72,41,2.57,BR,1684949565
56,puerto natales,-51.7236,-72.4875,5.229999999999961,65,75,1.03,CL,1684949685
57,rio grande,-32.035,-52.0986,28.039999999999964,61,43,3.31,BR,1684949685
58,polyarnyy,69.1989,33.4478,14.979999999999961,56,96,11.1,RU,1684949685
59,sao vicente,-23.9631,-46.3919,29.079999999999984,73,75,2.72,BR,1684949685
60,hasaki,35.7333,140.8333,12.879999999999995,62,39,1.06,JP,1684949685
61,olonkinbyen,70.9221,-8.7187,-1.6999999999999886,93,100,18.02,SJ,1684949685
62,benghazi,32.1167,20.0667,20.649999999999977,75,0,11.59,LY,1684949686
63,khandyga,62.6667,135.6,1.2099999999999795,82,70,1.32,RU,1684949686
64,fale old settlement,-9.3852,-171.2468,27.289999999999964,79,65,2.85,TK,1684949686
65,mahibadhoo,3.7833,72.9667,28.859999999999957,74,37,3.59,MV,1684949686
66,xilin hot,43.9667,116.0333,13.939999999999998,55,100,7.94,CN,1684949686
67,brooks,50.5834,-111.8851,12.96999999999997,71,99,6.17,CA,1684949498
68,kapa'a,22.0752,-159.319,25.159999999999968,82,20,6.69,US,1684949686
69,sitka,57.0531,-135.33,8.919999999999959,87,75,1.54,US,1684949687
70,baise city,23.8997,106.6133,24.44999999999999,93,98,1.34,CN,1684949687
71,tchintabaraden,15.8969,5.7985,38.599999999999966,11,5,3.68,NE,1684949687
72,buala,-8.145,159.5921,26.769999999999982,85,55,2.83,SB,1684949687
73,cidreira,-30.1811,-50.2056,22.55000000000001,75,31,4.64,BR,1684949687
74,tal,35.4791,72.2439,12.319999999999993,70,57,3.49,PK,1684949687
75,kapoeta,4.7717,33.5903,27.539999999999964,55,89,2.54,SS,1684949687
76,taoudenni,22.6783,-3.9836,31.370000000000005,19,99,9.53,ML,1684949687
77,alice springs,-23.7,133.8833,4.729999999999961,70,0,2.16,AU,1684949688
78,bethel,41.3712,-73.414,25.45999999999998,52,0,2.06,US,1684949688
79,seshcha,53.7361,33.3387,14.800000000000011,88,13,2.27,RU,1684949688
80,lazaro cardenas,17.9583,-102.2,30.859999999999957,58,99,4.28,MX,1684949688
81,winnemucca,40.973,-117.7357,19.00999999999999,42,0,3.3,US,1684949604
82,avarua,-21.2078,-159.775,25.00999999999999,73,75,5.14,CK,1684949688
83,urumqi,43.801,87.6005,18.50999999999999,32,0,2.0,CN,1684949688
84,tura,25.5198,90.2201,22.74000000000001,77,8,1.7,IN,1684949689
85,port mathurin,-19.6833,63.4167,25.0,68,2,6.52,MU,1684949689
86,praia da vitoria,38.7333,-27.0667,18.120000000000005,82,75,4.89,PT,1684949689
87,bam,29.106,58.357,30.94999999999999,16,53,2.41,IR,1684949689
88,strezhevoy,60.7333,77.5889,8.560000000000002,50,97,2.59,RU,1684949689
89,greenville,35.6127,-77.3663,23.389999999999986,47,75,3.09,US,1684949426
90,barra de santo antonio,-9.4047,-35.5072,26.579999999999984,81,17,4.65,BR,1684949689
91,bietigheim,48.9092,8.252,17.30000000000001,43,0,5.14,DE,1684949690
92,coquimbo,-29.9533,-71.3436,18.829999999999984,63,0,5.66,CL,1684949395
93,cooma,-36.2333,149.1333,6.6200000000000045,59,87,3.52,AU,1684949691
94,gaspe,48.8334,-64.4819,15.099999999999966,55,100,7.72,CA,1684949586
95,saipan,15.1355,145.701,24.370000000000005,94,100,11.83,MP,1684949692
96,broome,42.2506,-75.833,23.189999999999998,54,75,4.63,US,1684949692
97,port elizabeth,-33.918,25.5701,18.139999999999986,71,0,3.6,ZA,1684949692
98,vyatskiye polyany,56.226,51.0656,18.149999999999977,55,42,2.55,RU,1684949692
99,ca mau,9.1769,105.15,27.370000000000005,83,27,1.58,VN,1684949692
100,clacton-on-sea,51.7897,1.156,17.370000000000005,78,93,1.79,GB,1684949693
101,kashmar,35.2383,58.4656,27.95999999999998,23,20,2.06,IR,1684949694
102,namdrik,5.5994,168.1028,25.94999999999999,87,100,7.87,MH,1684949694
103,papatowai,-46.5619,169.4708,10.339999999999975,88,88,1.86,NZ,1684949694
104,ketchikan,55.3422,-131.6461,13.240000000000009,54,100,2.06,US,1684949598
105,isafjordur,66.0755,-23.124,5.0,60,100,5.14,IS,1684949694
106,iqaluit,63.7506,-68.5145,-2.170000000000016,86,100,2.57,CA,1684949695
107,meadow lakes,61.6247,-149.6011,10.680000000000007,74,100,2.06,US,1684949695
108,as sulayyil,20.4607,45.5779,34.120000000000005,19,42,3.5,SA,1684949695
109,sambava,-14.2667,50.1667,21.139999999999986,100,34,1.06,MG,1684949695
110,acapulco de juarez,16.8634,-99.8901,30.879999999999995,66,0,4.12,MX,1684949691
111,kocakoy,38.2903,40.5025,16.75,44,1,2.02,TR,1684949695
112,orchard homes,46.8633,-114.0484,19.019999999999982,56,20,1.79,US,1684949695
113,thompson,55.7435,-97.8558,14.069999999999993,38,75,4.12,CA,1684949696
114,georgetown,5.4112,100.3354,28.94999999999999,79,20,0.0,MY,1684949547
115,custodia,-8.0875,-37.6431,32.329999999999984,32,6,4.4,BR,1684949696
116,keflavik,64.0049,-22.5624,8.21999999999997,57,40,14.4,IS,1684949696
117,dudinka,69.4058,86.1778,-0.6299999999999955,92,99,1.44,RU,1684949696
118,leh,34.1667,77.5833,8.609999999999957,60,91,2.1,IN,1684949696
119,whitehorse,60.7161,-135.0538,11.149999999999977,56,75,6.17,CA,1684949430
120,wailua homesteads,22.0669,-159.378,24.41999999999996,83,20,6.69,US,1684949696
121,baharly,38.4362,57.4316,31.91999999999996,19,0,3.25,TM,1684949697
122,porto,41.1496,-8.611,25.0,48,0,4.63,PT,1684949561
123,anshan,41.1236,122.99,17.560000000000002,52,100,7.15,CN,1684949697
124,necochea,-38.5473,-58.7368,20.019999999999982,71,21,2.0,AR,1684949697
125,namibe,-15.1961,12.1522,20.680000000000007,82,1,7.48,AO,1684949697
126,ocean shores,46.9737,-124.1563,16.069999999999993,80,0,3.6,US,1684949697
127,cafayate,-26.073,-65.9761,26.19999999999999,9,0,2.28,AR,1684949698
128,hawaiian paradise park,19.5933,-154.9731,22.779999999999973,92,75,2.06,US,1684949698
129,college,64.8569,-147.8028,14.159999999999968,56,75,0.0,US,1684949665
130,paka,4.6374,103.4368,26.939999999999998,94,52,0.0,MY,1684949698
131,saint-pierre,-21.3393,55.4781,22.80000000000001,78,100,3.09,RE,1684949698
132,mogocha,53.7333,119.7667,1.1099999999999568,95,31,1.39,RU,1684949698
133,west island,-12.1568,96.8225,27.96999999999997,78,75,4.12,CC,1684949698
134,cabo san lucas,22.8909,-109.9124,34.14999999999998,21,40,0.0,MX,1684949467
135,choibalsan,48.0667,114.5,13.939999999999998,49,100,2.35,MN,1684949699
136,akoupe,6.39,-3.9003,27.80000000000001,78,100,2.43,CI,1684949699
137,paracuru,-3.41,-39.0306,28.930000000000007,69,79,5.64,BR,1684949699
138,ambodifotatra,-16.9833,49.85,25.589999999999975,74,44,5.69,MG,1684949699
139,itamaraca,-7.7478,-34.8256,27.00999999999999,68,39,4.11,BR,1684949699
140,anna regina,7.2644,-58.5077,30.639999999999986,61,23,3.14,GY,1684949699
141,preobrazheniye,42.9019,133.9064,10.560000000000002,77,41,3.55,RU,1684949699
142,rengasdengklok,-6.1592,107.2981,25.329999999999984,85,87,2.02,ID,1684949700
143,east london,-33.0153,27.9116,21.5,49,0,3.6,ZA,1684949700
144,fordingbridge,50.9275,-1.7903,20.539999999999964,44,0,3.6,GB,1684949700
145,kiruna,67.8557,20.2251,7.490000000000009,66,0,8.23,SE,1684949700
146,constantia,44.1833,28.65,20.370000000000005,80,6,2.13,RO,1684949700
147,paysandu,-32.3214,-58.0756,26.70999999999998,56,100,6.06,UY,1684949700
148,tolanaro,-25.0319,46.9987,19.019999999999982,88,75,1.03,MG,1684949700
149,atafu village,-8.5421,-172.5159,27.430000000000007,74,97,1.6,TK,1684949700
150,new norfolk,-42.7826,147.0587,16.599999999999966,57,100,2.24,AU,1684949701
151,paulista florida,-21.6,-51.2,26.66999999999996,41,0,3.66,BR,1684949701
152,kattivakkam,13.2167,80.3167,32.02999999999997,86,35,4.35,IN,1684949701
153,aasiaat,68.7098,-52.8699,-0.5,68,83,6.05,GL,1684949701
154,villa gesell,-37.2639,-56.973,20.00999999999999,98,100,2.22,AR,1684949701
155,medicine hat,50.0501,-110.6683,16.529999999999973,63,100,2.06,CA,1684949493
156,puerto lempira,15.2667,-83.7667,31.060000000000002,66,20,5.14,HN,1684949702
157,touros,-5.1989,-35.4608,28.649999999999977,63,71,5.33,BR,1684949702
158,juegang,32.3174,121.1855,16.039999999999964,65,91,4.22,CN,1684949702
159,kidal,18.4411,1.4078,40.64999999999998,11,49,4.48,ML,1684949702
160,misratah,32.3754,15.0925,20.25,76,0,9.18,LY,1684949703
161,kapuskasing,49.4169,-82.4331,7.029999999999973,45,0,4.12,CA,1684949703
162,ingeniero jacobacci,-41.3427,-69.5448,6.939999999999998,42,14,14.5,AR,1684949703
163,jamestown,42.097,-79.2353,19.779999999999973,61,75,7.2,US,1684949525
164,stanley,54.868,-1.6985,15.139999999999986,67,100,2.57,GB,1684949703
165,gadzhiyevo,69.2551,33.3362,11.579999999999984,67,99,9.57,RU,1684949704
166,malango,-2.9627,119.9001,19.99000000000001,98,100,0.65,ID,1684949704
167,quellon,-43.1167,-73.6167,11.120000000000005,66,75,5.66,CL,1684949704
168,noyabrsk,63.1994,75.4507,7.930000000000007,56,94,3.88,RU,1684949704
169,krasnyy kut,50.95,46.9667,20.569999999999993,54,51,4.15,RU,1684949704
170,tambopata,-12.7333,-69.1833,29.91999999999996,70,40,2.06,PE,1684949704
171,dawei,14.0833,98.2,27.819999999999993,78,87,3.12,MM,1684949704
172,zaragoza,41.6561,-0.8773,24.430000000000007,40,20,6.17,ES,1684949562
173,bilibino,68.0546,166.4372,2.659999999999968,75,55,1.26,RU,1684949705
174,luanda,-8.8368,13.2343,26.97999999999996,74,20,6.17,AO,1684949705
175,tralee,52.2704,-9.7026,15.120000000000005,67,20,3.6,IE,1684949705
176,mundri,-6.9558,111.71,23.109999999999957,91,10,2.12,ID,1684949705
177,chegdomyn,51.1167,133.0167,10.259999999999991,95,65,1.29,RU,1684949705
178,pacasmayo,-7.4006,-79.5714,22.539999999999964,86,58,6.43,PE,1684949706
179,laguna,38.421,-121.4238,20.579999999999984,59,0,4.63,US,1684949513
180,nar'yan-mar,67.6713,53.087,15.789999999999964,75,72,4.28,RU,1684949706
181,prince rupert,54.3161,-130.3201,11.029999999999973,77,75,3.09,CA,1684949490
182,barra do garcas,-15.89,-52.2567,32.30000000000001,51,0,4.12,BR,1684949554
183,el bauga,18.262,33.9081,37.139999999999986,12,24,3.01,SD,1684949706
184,gillette,44.2911,-105.5022,21.149999999999977,59,0,6.69,US,1684949707
185,lebu,-37.6167,-73.65,12.819999999999993,70,46,5.55,CL,1684949707
186,taltal,-25.4,-70.4833,20.339999999999975,65,4,2.72,CL,1684949707
187,tinogasta,-28.0632,-67.5649,24.94999999999999,19,0,2.44,AR,1684949707
188,nouadhibou,20.931,-17.0347,22.96999999999997,56,63,8.75,MR,1684949707
189,wamba,8.9333,8.6,27.379999999999995,69,96,1.68,NG,1684949708
190,isangel,-19.55,169.2667,21.44999999999999,70,97,5.41,VU,1684949708
191,pisco,-13.7,-76.2167,24.00999999999999,69,0,3.6,PE,1684949678
192,broken hill,-31.95,141.4333,11.669999999999959,35,100,6.12,AU,1684949484
193,kailua-kona,19.6406,-155.9956,24.95999999999998,75,0,1.54,US,1684949708
194,newman,37.3138,-121.0208,21.099999999999966,36,1,3.13,US,1684949709
195,vega de alatorre,20.0333,-96.6333,29.060000000000002,66,76,4.2,MX,1684949709
196,al jawf,29.5,38.75,26.99000000000001,27,62,5.5,SA,1684949709
197,qaqortoq,60.7167,-46.0333,0.9399999999999977,99,100,5.37,GL,1684949709
198,richards bay,-28.783,32.0377,18.639999999999986,89,7,4.01,ZA,1684949709
199,afaahiti,-17.75,-149.2833,23.909999999999968,77,47,2.15,PF,1684949710
200,ta`u,-14.2336,-169.5144,26.899999999999977,80,100,2.81,AS,1684949710
201,bardai,11.65,7.2333,31.16999999999996,44,100,4.13,NG,1684949710
202,cadale,2.7603,46.3222,26.139999999999986,82,42,5.88,SO,1684949710
203,fortuna,40.5982,-124.1573,15.729999999999961,85,40,3.09,US,1684949710
204,copiapo,-27.3667,-70.3333,15.810000000000002,38,0,2.9,CL,1684949704
205,bambamarca,-6.6833,-78.5333,16.99000000000001,77,99,2.78,PE,1684949710
206,aykhal,66.0,111.5,-1.8799999999999955,97,88,4.11,RU,1684949710
207,peniscola,40.3359,0.3613,22.19999999999999,52,19,1.84,ES,1684949711
208,kruisfontein,-34.0033,24.7314,15.629999999999995,51,2,2.96,ZA,1684949711
209,kitimat,54.0524,-128.6534,15.919999999999959,63,100,3.13,CA,1684949711
210,bengkulu,-3.8004,102.2655,24.629999999999995,91,45,1.98,ID,1684949711
211,olinda,-8.0089,-34.8553,26.829999999999984,78,75,2.06,BR,1684949711
212,san juan de miraflores,-12.1629,-76.9635,24.269999999999982,77,94,3.82,PE,1684949712
213,tra vinh,9.9347,106.3453,27.019999999999982,81,27,2.77,VN,1684949712
214,djambala,-2.5447,14.7533,24.329999999999984,73,88,1.32,CG,1684949712
215,saudarkrokur,65.7461,-19.6394,5.659999999999968,61,71,11.53,IS,1684949712
216,kemijarvi,66.7131,27.4306,12.479999999999961,67,100,5.48,FI,1684949712
217,uige,-7.6087,15.0613,22.269999999999982,70,52,0.35,AO,1684949713
218,sterling,39.0062,-77.4286,26.839999999999975,49,75,1.54,US,1684949713
219,shawano,44.7822,-88.609,16.839999999999975,34,88,5.45,US,1684949713
220,klyuchi,52.2667,79.1667,16.349999999999966,40,59,4.66,RU,1684949713
221,dunmore,41.4198,-75.6324,26.589999999999975,50,0,3.6,US,1684949713
222,pathein,16.7833,94.7333,28.00999999999999,81,23,4.55,MM,1684949714
223,saskatoon,52.1168,-106.6345,12.96999999999997,76,100,3.6,CA,1684949201
224,bakanas,44.8081,76.2772,19.20999999999998,19,6,2.96,KZ,1684949714
225,scarborough,54.2797,-0.4044,14.789999999999964,68,27,0.45,GB,1684949586
226,tiete,-23.1019,-47.7147,25.069999999999993,49,0,2.55,BR,1684949714
227,happy valley-goose bay,53.3168,-60.3315,8.149999999999977,81,100,3.6,CA,1684949714
228,kampong thom,12.7111,104.8887,27.519999999999982,73,14,0.14,KH,1684949715
229,fort bragg,35.139,-79.006,24.529999999999973,30,0,4.63,US,1684949715
230,tofol,5.3248,163.0078,27.870000000000005,76,95,4.22,FM,1684949715
231,natal,-5.795,-35.2094,31.339999999999975,58,40,6.17,BR,1684949550
232,belmonte,-15.8631,-38.8828,27.349999999999966,60,64,2.8,BR,1684949715
233,balao,-2.9167,-79.8167,26.680000000000007,82,97,2.55,EC,1684949716
234,hermanus,-34.4187,19.2345,17.089999999999975,63,6,4.75,ZA,1684949716
235,floresta,-8.6011,-38.5686,32.00999999999999,39,42,8.33,BR,1684949716
236,vilyuchinsk,52.9306,158.4028,0.12999999999999545,86,11,4.25,RU,1684949716
237,lihue,21.9789,-159.3672,24.75,82,20,6.69,US,1684949665
238,punta arenas,-53.15,-70.9167,4.990000000000009,87,75,3.09,CL,1684949717
239,cockburn town,21.4612,-71.1419,27.599999999999966,71,19,1.5,TC,1684949717
240,kodiak,57.79,-152.4072,6.7099999999999795,93,100,1.54,US,1684949717
241,bredasdorp,-34.5322,20.0403,13.539999999999964,70,5,2.17,ZA,1684949717
242,sept-iles,50.2001,-66.3821,9.449999999999989,83,75,3.6,CA,1684949718
243,mata-utu,-13.2816,-176.1745,26.94999999999999,81,93,4.81,WF,1684949723
244,taroa,8.7058,171.2275,27.70999999999998,79,100,6.67,MH,1684949723
245,nishinoomote,30.7333,131.0,21.0,55,75,5.37,JP,1684949723
246,taulaga,-11.0553,-171.0883,27.50999999999999,69,59,1.92,AS,1684949724
247,auki,-8.7676,160.7034,27.129999999999995,77,6,1.45,SB,1684949724
248,valparaiso,-33.0393,-71.6273,18.109999999999957,70,75,2.57,CL,1684949724
249,sinop,41.7711,34.8709,12.169999999999959,91,100,2.78,TR,1684949724
250,dukhan,25.4297,50.7858,31.189999999999998,51,100,3.49,QA,1684949724
251,kargopol',61.5071,38.9456,14.050000000000011,94,100,1.12,RU,1684949725
252,vennesla,58.2694,7.9741,18.659999999999968,42,0,6.69,NO,1684949725
253,anadyr,64.75,177.4833,2.259999999999991,87,75,3.0,RU,1684949725
254,plettenberg bay,-34.0527,23.3716,15.849999999999966,66,3,0.17,ZA,1684949725
255,aral,40.5156,81.2636,20.96999999999997,26,100,7.36,CN,1684949725
256,santanyi,39.3546,3.1291,22.829999999999984,70,68,0.98,ES,1684949725
257,vila velha,-20.3297,-40.2925,25.94999999999999,75,40,4.63,BR,1684949726
258,carbonear,47.7332,-53.2148,13.169999999999959,76,1,2.54,CA,1684949726
259,funadhoo,6.15,73.2667,29.060000000000002,73,10,3.16,MV,1684949726
260,pinhao,-25.6956,-51.6597,21.870000000000005,43,0,3.06,BR,1684949726
261,algona,43.07,-94.233,27.289999999999964,28,0,3.09,US,1684949726
262,sandnessjoen,66.0217,12.6316,8.269999999999982,82,75,10.29,NO,1684949727
263,santana,-0.0583,-51.1817,29.079999999999984,84,75,4.12,BR,1684949514
264,soufriere,13.8562,-61.0566,30.789999999999964,76,20,6.69,LC,1684949727
265,luderitz,-26.6481,15.1594,12.829999999999984,85,49,0.55,NA,1684949727
266,sangueya,10.7,-14.3667,30.24000000000001,61,100,4.86,GN,1684949727
267,crane,31.3974,-102.3501,27.829999999999984,54,25,6.66,US,1684949727
268,longyearbyen,78.2186,15.6401,3.8899999999999864,70,75,11.83,SJ,1684949727
269,nyurba,63.2842,118.3319,2.7199999999999704,61,83,2.24,RU,1684949727
270,portland,45.5234,-122.6762,18.310000000000002,67,75,2.06,US,1684949686
271,remire-montjoly,4.9167,-52.2667,30.0,66,20,5.14,GF,1684949491
272,khuzdar,27.7384,66.6434,28.97999999999996,17,1,2.01,PK,1684949728
273,taco pozo,-25.6167,-63.2833,28.75999999999999,56,65,6.73,AR,1684949728
274,dehdasht,30.7949,50.5646,29.329999999999984,12,49,1.02,IR,1684949728
275,manbij,36.5281,37.9549,22.659999999999968,33,45,3.39,SY,1684949728
276,mili,6.0815,171.735,27.779999999999973,76,100,4.64,MH,1684949728
277,berriane,32.8265,3.7669,28.430000000000007,21,58,8.0,DZ,1684949728
278,guane,22.2025,-84.0875,31.109999999999957,51,31,2.15,CU,1684949729
279,hamilton,39.1834,-84.5333,29.00999999999999,41,0,3.09,US,1684949719
280,taiynsha,53.8478,69.7639,17.069999999999993,42,27,3.31,KZ,1684949729
281,zapolyarnyy,69.4154,30.8136,11.579999999999984,53,100,11.1,RU,1684949729
282,cape coast,5.1053,-1.2466,27.71999999999997,81,100,4.49,GH,1684949729
283,malmberget,67.1753,20.6549,8.289999999999964,71,20,6.69,SE,1684949729
284,bagan,54.1001,77.6646,11.789999999999964,42,41,3.31,RU,1684949729
285,north platte,41.1239,-100.7654,23.49000000000001,58,20,5.81,US,1684949729
286,port lincoln,-34.7333,135.8667,15.729999999999961,83,100,6.76,AU,1684949730
287,manamadurai,9.7,78.4833,31.189999999999998,58,63,2.51,IN,1684949730
288,kisangani,0.5167,25.2,28.909999999999968,52,80,1.06,CD,1684949730
289,celle,52.6226,10.0805,16.180000000000007,74,75,3.09,DE,1684949730
290,san luis de la loma,17.2706,-100.8939,31.97999999999996,55,80,4.31,MX,1684949730
291,pyt-yakh,60.7499,72.8582,13.449999999999989,58,100,3.71,RU,1684949730
292,ati,13.2154,18.3353,39.94,18,7,2.37,TD,1684949730
293,yemva,62.59,50.8594,17.810000000000002,55,98,2.16,RU,1684949731
294,karratha,-20.7377,116.8463,23.079999999999984,47,1,4.31,AU,1684949731
295,beas de segura,38.2524,-2.8888,17.560000000000002,67,92,2.97,ES,1684949731
296,ain sefra,32.75,-0.5833,21.269999999999982,29,58,5.57,DZ,1684949731
297,turkmenbasy,40.0222,52.9552,26.409999999999968,31,0,3.09,TM,1684949731
298,vorgashor,67.5833,63.95,9.449999999999989,81,1,4.32,RU,1684949731
299,acarau,-2.8856,-40.12,28.099999999999966,76,71,8.67,BR,1684949731
300,anloga,5.7947,0.8973,28.339999999999975,73,100,4.02,GH,1684949732
301,la passe,45.5549,-0.8967,22.109999999999957,66,100,7.55,FR,1684949732
302,kongolo,-5.3833,27.0,25.649999999999977,65,46,1.49,CD,1684949732
303,moires,35.0532,24.8744,19.49000000000001,80,54,0.89,GR,1684949732
304,nadym,65.5333,72.5167,6.659999999999968,62,89,4.39,RU,1684949732
305,gongchangling,41.1167,123.45,13.740000000000009,65,96,3.05,CN,1684949732
306,yevlakh,40.6183,47.1501,25.96999999999997,50,100,0.0,AZ,1684949732
307,shangqiu,34.45,115.65,14.079999999999984,74,4,2.45,CN,1684949732
308,arraial do cabo,-22.9661,-42.0278,25.95999999999998,61,0,7.2,BR,1684949733
309,trevelin,-43.0858,-71.4639,4.689999999999998,82,96,3.64,AR,1684949733
310,novospasskoye,53.1468,47.7514,19.060000000000002,51,30,3.21,RU,1684949733
311,ust-nera,64.5667,143.2,1.089999999999975,98,100,1.39,RU,1684949733
312,shawinigan,46.5668,-72.7491,8.269999999999982,66,100,4.63,CA,1684949733
313,ivdel',60.6911,60.4206,15.75,69,54,0.78,RU,1684949733
314,puerto cabezas,14.0351,-83.3888,30.95999999999998,79,40,3.09,NI,1684949733
315,sao joao da barra,-21.6403,-41.0511,27.029999999999973,52,24,4.76,BR,1684949733
316,jetalsar,21.7,70.5833,28.569999999999993,74,31,7.02,IN,1684949734
317,laojunmiao,39.8333,97.7333,9.279999999999973,25,97,1.57,CN,1684949734
318,uturoa,-16.7333,-151.4333,27.019999999999982,70,63,1.84,PF,1684949734
319,alghero,40.5589,8.3181,24.029999999999973,53,20,3.6,IT,1684949734
320,ancud,-41.8697,-73.8203,10.389999999999986,74,100,12.35,CL,1684949605
321,novodvinsk,64.4165,40.8122,17.00999999999999,66,54,1.76,RU,1684949734
322,san antonio de pale,-1.4014,5.6325,27.159999999999968,81,100,2.9,GQ,1684949734
323,elliot,-31.3333,27.85,11.560000000000002,41,46,5.05,ZA,1684949734
324,guiuan,11.0333,125.7247,29.060000000000002,70,78,1.52,PH,1684949735
325,dryden,49.7833,-92.7503,11.139999999999986,40,75,3.6,CA,1684949735
326,port lavaca,28.615,-96.6261,30.529999999999973,67,0,2.57,US,1684949735
327,apatity,67.5641,33.4031,15.25,61,98,6.77,RU,1684949735
328,kavieng,-2.5744,150.7967,27.189999999999998,82,100,6.94,PG,1684949735
329,arno,60.1167,18.6333,13.189999999999998,46,88,6.96,SE,1684949735
330,usinsk,65.9939,57.5281,16.589999999999975,64,49,6.25,RU,1684949735
331,la ligua,-32.4524,-71.2311,17.5,54,100,1.51,CL,1684949577
332,qarauyl,48.9451,79.255,12.919999999999959,45,6,2.39,KZ,1684949736
333,vadso,70.0744,29.7487,12.46999999999997,54,0,12.86,NO,1684949736
334,holualoa,19.6228,-155.9522,23.029999999999973,76,0,1.54,US,1684949736
335,genhe,50.7833,121.5167,10.589999999999975,45,99,2.35,CN,1684949736
336,lahad datu,5.0268,118.327,22.45999999999998,98,97,0.39,MY,1684949736
337,tongliao,43.6125,122.2653,20.47999999999996,40,95,9.97,CN,1684949736
338,villa ojo de agua,-29.5,-63.6938,21.899999999999977,81,85,5.19,AR,1684949737
339,takab,36.4009,47.1133,16.839999999999975,53,90,1.94,IR,1684949737
340,bembereke,10.2283,2.6634,26.159999999999968,71,100,3.03,BJ,1684949737
341,makokou,0.5738,12.8642,23.139999999999986,95,60,0.83,GA,1684949737
342,'ali sabieh,11.1558,42.7125,28.05000000000001,67,4,7.49,DJ,1684949737
343,qir moav,31.1825,35.7,22.409999999999968,26,40,2.33,JO,1684949737
344,utrik,11.2278,169.8474,27.430000000000007,79,96,6.49,MH,1684949737
345,ulundi,-28.3352,31.4162,15.819999999999993,63,34,1.42,ZA,1684949738
346,chibougamau,49.9168,-74.3659,3.769999999999982,70,100,7.2,CA,1684949738
347,lloydminster,53.2835,-110.0016,14.099999999999966,72,75,3.09,CA,1684949738
348,ajdabiya,30.7554,20.2263,22.45999999999998,68,5,6.65,LY,1684949738
349,ventspils,57.3894,21.5606,18.939999999999998,59,0,2.06,LV,1684949738
350,yung shue wan,22.2333,114.1167,26.269999999999982,88,100,0.45,HK,1684949738
351,sovetskaya gavan',48.9723,140.2878,11.599999999999966,69,55,1.91,RU,1684949738
352,xining,36.6167,101.7667,9.039999999999964,63,100,3.31,CN,1684949739
353,santa cruz,-17.8,-63.1667,29.680000000000007,65,75,7.72,BO,1684949586
354,nemuro,43.3236,145.575,6.050000000000011,77,100,1.81,JP,1684949739
355,bosaso,11.2842,49.1816,29.589999999999975,82,97,4.91,SO,1684949739
356,askoy,60.4092,5.226,11.620000000000005,79,75,4.12,NO,1684949739
357,tucuma,-0.1833,-50.05,28.359999999999957,78,32,3.55,BR,1684949739
358,rio tuba,8.5061,117.4317,27.339999999999975,79,80,2.28,PH,1684949740
359,pangyan,5.7008,125.2811,27.139999999999986,83,100,2.89,PH,1684949740
360,praya,14.9215,-23.5087,26.279999999999973,61,75,9.26,CV,1684949740
361,yambio,4.5721,28.3955,21.66999999999996,87,98,2.72,SS,1684949740
362,yanchep,-31.55,115.6833,10.879999999999995,63,0,4.04,AU,1684949740
363,selfoss,63.9331,-20.9971,9.449999999999989,61,28,11.31,IS,1684949740
364,odda,60.0691,6.5457,12.629999999999995,94,100,3.41,NO,1684949741
365,tazacorte,28.629,-17.9293,21.519999999999982,72,75,2.57,ES,1684949741
366,greymouth,-42.4667,171.2,13.069999999999993,73,81,2.36,NZ,1684949741
367,eureka,40.8021,-124.1637,15.879999999999995,77,1,1.79,US,1684949741
368,port hedland,-20.3167,118.5667,16.00999999999999,48,0,3.09,AU,1684949741
369,dhidhdhoo,6.8833,73.1,29.069999999999993,74,6,3.13,MV,1684949741
370,naaldwijk,51.9942,4.2097,16.069999999999993,67,75,4.12,NL,1684949741
371,ola,59.5833,151.2833,2.839999999999975,85,79,1.13,RU,1684949742
372,castillos,-34.1667,-53.8333,27.089999999999975,54,96,5.36,UY,1684949742
373,horsham,51.064,-0.3272,20.819999999999993,45,0,4.63,GB,1684949686
374,maroua,10.591,14.3159,36.21999999999997,29,60,0.54,CM,1684949742
375,satuek,15.297,103.2919,26.69999999999999,64,61,3.27,TH,1684949742
376,axim,4.8699,-2.2405,26.819999999999993,87,100,2.84,GH,1684949742
377,kurumkan,54.3,110.3,2.659999999999968,91,100,3.66,RU,1684949742
378,penhalonga,-18.8911,32.6978,13.849999999999966,68,0,2.32,ZW,1684949742
379,poronaysk,49.2167,143.1167,7.729999999999961,81,33,1.33,RU,1684949743
380,kincardine,56.0667,-3.7167,19.379999999999995,62,3,3.25,GB,1684949743
381,gitarama,-2.0744,29.7567,20.680000000000007,94,64,0.98,RW,1684949743
382,lyubim,58.3625,40.6843,14.740000000000009,96,64,2.05,RU,1684949743
383,tulun,54.5611,100.5792,3.009999999999991,66,92,5.7,RU,1684949743
384,bychawa,51.0161,22.533,21.899999999999977,85,98,1.98,PL,1684949743
385,vodice,43.7608,15.7828,21.95999999999998,81,75,1.0,HR,1684949743
386,aras-asan,8.8908,126.3033,25.329999999999984,87,100,1.91,PH,1684949743
387,keelung,25.1283,121.7419,23.079999999999984,86,89,0.83,TW,1684949744
388,zilupe,56.3862,28.1217,16.029999999999973,62,71,1.24,LV,1684949744
389,berdigestyakh,62.0989,126.6992,1.099999999999966,79,65,1.27,RU,1684949744
390,whakatane,-37.9585,176.9854,9.849999999999966,99,19,0.89,NZ,1684949744
391,brookings,44.3114,-96.7984,27.810000000000002,34,0,6.69,US,1684949744
392,carmelo,-33.9892,-58.2856,21.399999999999977,90,100,4.93,UY,1684949627
393,alenquer,-1.9417,-54.7383,31.339999999999975,60,100,1.35,BR,1684949744
394,puerto baquerizo moreno,-0.9,-89.6,27.529999999999973,78,40,3.6,EC,1684949744
395,sudova vyshnya,49.7889,23.3722,17.109999999999957,89,63,2.32,UA,1684949745
396,idri,27.5,13.2667,33.55000000000001,7,98,6.56,LY,1684949745
397,garissa,-0.4536,39.6401,27.80000000000001,61,80,8.67,KE,1684949745
398,siwa oasis,29.2041,25.5195,30.99000000000001,19,66,3.45,EG,1684949745
399,palikir - national government center,6.9248,158.1611,25.389999999999986,89,75,2.06,FM,1684949745
400,st. john's,47.5649,-52.7093,12.909999999999968,68,20,3.09,CA,1684949708
401,vredendal,-31.6683,18.5012,12.069999999999993,81,93,1.2,ZA,1684949745
402,udachny,66.4167,112.4,1.339999999999975,80,89,4.8,RU,1684949745
403,bori,4.6737,7.362,27.139999999999986,80,78,4.08,NG,1684949746
404,fujin,47.26,132.0322,18.639999999999986,42,88,5.88,CN,1684949751
405,tomatlan,19.9333,-105.25,36.139999999999986,23,98,3.82,MX,1684949751
406,moapa valley,36.5805,-114.4703,31.94999999999999,15,59,8.44,US,1684949594
407,amga,60.8953,131.9608,0.9900000000000091,88,40,0.45,RU,1684949751
408,port alfred,-33.5906,26.891,17.30000000000001,75,5,2.57,ZA,1684949751
409,taro,-8.3862,115.28,21.97999999999996,90,57,0.65,ID,1684949751
410,hola,51.5377,23.1902,22.079999999999984,74,73,2.41,PL,1684949751
411,dauphin,51.1494,-100.0502,16.060000000000002,59,40,8.75,CA,1684949751
412,viedma,-40.8135,-62.9967,19.319999999999993,23,65,7.6,AR,1684949752
413,igarka,67.4667,86.5833,-1.759999999999991,94,45,3.84,RU,1684949752
414,alto piquiri,-24.0281,-53.4406,24.269999999999982,56,0,5.32,BR,1684949752
415,mitu,1.1983,-70.1733,27.50999999999999,88,63,0.3,CO,1684949752
416,batangafo,7.3008,18.2833,32.89999999999998,30,82,0.65,CF,1684949752
417,ongjin,37.9347,125.3619,13.370000000000005,82,52,0.94,KP,1684949752
418,murmashi,68.8154,32.8115,17.20999999999998,48,40,4.92,RU,1684949752
419,geraldton,-28.7667,114.6,13.20999999999998,82,40,3.6,AU,1684949487
420,dalandzadgad,43.5708,104.425,9.199999999999989,51,100,3.44,MN,1684949745
421,carloforte,39.145,8.3058,18.889999999999986,78,100,2.5,IT,1684949753
422,bechar,31.6167,-2.2167,28.159999999999968,16,40,3.6,DZ,1684949753
423,kencong,-8.2833,113.3667,23.69999999999999,92,40,1.53,ID,1684949753
424,derzhavinsk,51.1,66.3167,19.039999999999964,35,70,2.53,KZ,1684949753
425,izazi,-7.2,35.7333,25.149999999999977,56,60,1.94,TZ,1684949753
426,arawa,-6.2132,155.5367,24.870000000000005,93,100,0.59,PG,1684949753
427,lambarene,-0.7001,10.2406,25.24000000000001,93,95,1.52,GA,1684949753
428,puerto armuelles,8.2833,-82.8667,30.96999999999997,76,99,1.57,PA,1684949754
429,freetown,8.484,-13.2299,28.819999999999993,84,40,5.14,SL,1684949754
430,hotan,37.0997,79.9269,21.319999999999993,34,100,2.25,CN,1684949649
431,ceeldheer,3.8488,47.1806,27.680000000000007,73,96,6.77,SO,1684949754
432,coahuayana de hidalgo,18.7,-103.6583,31.819999999999993,52,82,3.58,MX,1684949754
433,barysh,53.6553,47.1123,19.16999999999996,50,54,3.94,RU,1684949754
434,acaponeta,22.4964,-105.3594,34.97999999999996,30,98,2.77,MX,1684949754
435,fort saskatchewan,53.7168,-113.2187,18.139999999999986,54,40,3.6,CA,1684949520
436,caluula,11.9661,50.7569,30.779999999999973,65,21,4.59,SO,1684949754
437,saacow,1.6279,42.4407,27.569999999999993,64,71,8.22,SO,1684949755
438,kununurra,-15.7667,128.7333,15.96999999999997,77,6,0.0,AU,1684949755
439,flin flon,54.7682,-101.865,14.889999999999986,44,75,3.6,CA,1684949755
440,gisborne,-38.6533,178.0042,12.349999999999966,78,62,3.94,NZ,1684949755
441,otaki,-40.7583,175.15,9.479999999999961,86,22,1.42,NZ,1684949755
442,farim,12.4839,-15.2217,39.41999999999996,16,100,3.82,GW,1684949755
443,sussex,41.1834,-74.6663,26.599999999999966,50,0,2.24,US,1684949755
444,tshela,-4.9833,12.9333,23.46999999999997,97,90,1.0,CD,1684949756
445,east end,34.5507,-92.341,28.25999999999999,56,75,0.89,US,1684949756
446,chamical,-30.36,-66.314,25.19999999999999,56,28,3.58,AR,1684949756
447,korla,41.7597,86.1469,20.870000000000005,21,100,2.76,CN,1684949756
448,qulsary,46.9531,54.0198,25.66999999999996,21,7,6.87,KZ,1684949756
449,beaufort west,-32.3567,22.583,19.069999999999993,23,55,7.76,ZA,1684949756
450,kalach,50.4258,41.0261,16.71999999999997,95,92,6.12,RU,1684949756
451,nantucket,41.2835,-70.0995,16.060000000000002,89,75,4.63,US,1684949742
452,horodok,49.1637,26.5839,17.279999999999973,70,94,3.61,UA,1684949757
453,loango,-4.6719,11.8312,26.789999999999964,83,40,2.57,CG,1684949757
454,brokopondo,4.75,-55.1667,29.74000000000001,66,71,1.99,SR,1684949757
455,chivhu,-19.0211,30.8922,15.25,37,0,3.16,ZW,1684949684
456,juneau,58.3019,-134.4197,12.430000000000007,82,100,4.12,US,1684949516
457,san patricio,28.017,-97.5169,31.74000000000001,51,15,3.75,US,1684949757
458,vila franca do campo,37.7167,-25.4333,18.20999999999998,75,97,3.47,PT,1684949758
459,phanom sarakham,13.7479,101.3553,31.05000000000001,77,81,2.76,TH,1684949758
460,port augusta,-32.5,137.7667,14.419999999999959,36,100,5.94,AU,1684949758
461,isabela,6.7085,121.9711,26.620000000000005,85,100,2.74,PH,1684949758
462,bom jesus da lapa,-13.255,-43.4181,32.379999999999995,28,10,3.53,BR,1684949758
463,puerto colombia,10.9878,-74.9547,29.279999999999973,72,100,5.33,CO,1684949758
464,rochester,43.1548,-77.6156,12.529999999999973,90,100,3.6,US,1684949471
465,tasqala,51.1167,50.3167,20.399999999999977,39,41,5.59,KZ,1684949759
466,ben gardane,33.1378,11.2197,23.109999999999957,63,0,4.95,TN,1684949759
467,tornio,65.8481,24.1466,8.990000000000009,94,100,3.82,FI,1684949759
468,qinhuangdao,39.9317,119.5883,19.5,46,100,3.01,CN,1684949759
469,trogir,43.5125,16.2517,22.00999999999999,60,0,3.09,HR,1684949759
470,nova vicosa,-17.8919,-39.3719,24.129999999999995,83,29,5.9,BR,1684949759
471,suva,-18.1416,178.4415,21.689999999999998,94,75,1.54,FJ,1684949760
472,afif,23.9065,42.9172,22.029999999999973,59,67,9.84,SA,1684949760
473,ondjiva,-17.0667,15.7333,22.599999999999966,23,4,1.55,AO,1684949760
474,cherdakly,54.3594,48.845,21.94999999999999,37,0,1.0,RU,1684949761
475,gizo,-8.103,156.8419,28.25999999999999,75,83,5.29,SB,1684949761
476,san pedro pochutla,15.7333,-96.4667,33.81999999999999,45,31,4.49,MX,1684949761
477,pandan,14.0453,124.1694,29.159999999999968,75,42,2.41,PH,1684949761
478,tangalle,6.024,80.7911,26.189999999999998,86,3,4.19,LK,1684949761
479,taunsa,30.7048,70.6505,33.039999999999964,29,63,2.43,PK,1684949761
480,trincomalee,8.5711,81.2335,26.05000000000001,85,26,2.52,LK,1684949761
481,tosontsengel,48.7567,98.2839,3.519999999999982,74,75,6.78,MN,1684949762
482,ambon,-3.6954,128.1814,29.060000000000002,12,40,1.54,ID,1684949680
483,sinabang,2.4803,96.3801,26.539999999999964,82,84,1.08,ID,1684949762
484,cuauhtemoc,28.4167,-106.8667,23.560000000000002,18,7,1.98,MX,1684949762
485,semporna,4.4818,118.6112,24.30000000000001,91,77,1.4,MY,1684949762
486,rosalie,15.3667,-61.2667,28.370000000000005,94,40,1.03,DM,1684949763
487,chebba,35.2372,11.115,19.44999999999999,84,55,7.9,TN,1684949763
488,pemangkat,1.1667,108.9667,26.649999999999977,84,97,3.45,ID,1684949763
489,melfort,52.8667,-104.6177,16.05000000000001,51,99,5.14,CA,1684949763
490,bonthe,7.5264,-12.505,28.95999999999998,74,98,3.7,SL,1684949763
491,manturovo,58.3353,44.7619,16.829999999999984,94,77,3.34,RU,1684949764
492,nanao,37.05,136.9667,13.46999999999997,75,83,3.1,JP,1684949764
493,sidareja,-7.4846,108.7923,23.25,90,32,0.84,ID,1684949764
494,archangelos,36.2149,28.1149,19.039999999999964,79,34,1.83,GR,1684949764
495,callao,-12.0667,-77.15,25.139999999999986,61,0,6.17,PE,1684949764
496,mirny,62.5353,113.9611,5.669999999999959,48,100,4.02,RU,1684949764
497,pishva,35.308,51.7267,32.72999999999996,9,51,1.07,IR,1684949765
498,ar rutbah,33.0381,40.2848,20.529999999999973,62,68,5.27,IQ,1684949765
499,port macquarie,-31.4333,152.9167,6.589999999999975,73,2,0.96,AU,1684949603
500,alto araguaia,-17.3147,-53.2153,27.349999999999966,36,0,3.51,BR,1684949765
501,narasannapeta,18.4167,84.05,29.20999999999998,66,64,1.28,IN,1684949765
502,talodi,10.6325,30.3797,35.76999999999998,22,83,0.8,SD,1684949765
503,kiunga,-6.1219,141.2906,22.22999999999996,99,100,0.65,PG,1684949765
504,isla mujeres,21.2311,-86.731,31.00999999999999,64,1,4.96,MX,1684949766
505,nago,26.5881,127.9761,23.21999999999997,67,48,1.59,JP,1684949766
506,iranshahr,27.2025,60.6848,38.16999999999996,14,20,3.09,IR,1684949766
507,quiberon,47.4841,-3.1196,20.75999999999999,44,89,8.35,FR,1684949766
508,hami,42.8,93.45,20.46999999999997,19,7,4.32,CN,1684949766
509,karachi,24.9056,67.0822,28.879999999999995,79,75,8.23,PK,1684949536
510,minas de marcona,-15.2119,-75.1103,24.589999999999975,44,73,1.37,PE,1684949767
511,wurtulla,-26.7568,153.1256,12.370000000000005,97,2,3.01,AU,1684949767
512,podgornoye,51.735,39.1496,20.069999999999993,82,0,1.0,RU,1684949767
513,ardakan,32.31,54.0175,31.599999999999966,15,80,4.0,IR,1684949767
514,kavaratti,10.5669,72.642,29.589999999999975,70,53,3.76,IN,1684949767
515,el jadid,33.2549,-8.506,19.569999999999993,70,1,4.96,MA,1684949768
516,sena madureira,-9.0656,-68.6569,23.71999999999997,93,100,1.34,BR,1684949768
517,smithers,54.7804,-127.1743,15.159999999999968,47,75,2.06,CA,1684949757
518,karakocan,38.9558,40.0386,15.759999999999991,48,4,1.76,TR,1684949768
519,ghat,24.9647,10.1728,34.849999999999966,12,97,4.41,LY,1684949768
520,ustyuzhna,58.8394,36.4321,13.930000000000007,97,98,1.4,RU,1684949769
521,kermanshah,34.3142,47.065,21.47999999999996,46,0,5.14,IR,1684949403
522,gamba,-2.65,10.0,25.879999999999995,89,87,2.75,GA,1684949769
523,kavalerovo,44.2661,135.0572,10.919999999999959,75,19,1.33,RU,1684949769
524,san andres,12.5847,-81.7006,27.529999999999973,69,71,1.33,CO,1684949769
525,langepas,61.2544,75.2124,11.089999999999975,40,67,3.29,RU,1684949769
526,tarko-sale,64.9225,77.785,3.2899999999999636,83,60,3.27,RU,1684949769
527,yeppoon,-23.1333,150.7333,12.859999999999957,95,0,1.88,AU,1684949770
528,lyantor,61.6195,72.1555,11.789999999999964,60,96,6.91,RU,1684949770
529,akureyri,65.6835,-18.0878,6.939999999999998,45,75,5.14,IS,1684949770
530,salacgriva,57.7536,24.3581,14.359999999999957,68,12,1.29,LV,1684949770
531,narwar,25.65,77.9,26.50999999999999,52,32,4.66,IN,1684949770
532,noosa heads,-26.3833,153.15,12.389999999999986,85,2,3.42,AU,1684949770
533,liwale,-9.7667,37.9333,20.189999999999998,83,36,1.03,TZ,1684949771
534,diu,20.7141,70.9822,28.180000000000007,83,64,6.98,IN,1684949713
535,nagqu,31.5,92.0,2.240000000000009,58,1,2.87,CN,1684949771
536,beau vallon,-20.4189,57.6953,22.879999999999995,76,9,1.82,MU,1684949771
537,dietmannsried,47.8,10.2833,11.96999999999997,92,100,1.8,DE,1684949771
538,vorkuta,67.5,64.0,10.149999999999977,77,1,3.6,RU,1684949772
539,chela,34.069,104.4619,11.490000000000009,91,100,1.25,CN,1684949772
540,tokar,18.4254,37.729,30.019999999999982,73,12,5.24,SD,1684949772
541,adis zemen,12.1167,37.7833,24.95999999999998,28,65,2.17,ET,1684949772
542,dunedin,-45.8742,170.5036,10.430000000000007,66,50,1.85,NZ,1684949772
543,mejit,10.2753,170.8646,27.310000000000002,79,100,6.43,MH,1684949772
544,xiva,41.3783,60.3639,19.96999999999997,11,0,3.77,UZ,1684949773
545,la foa,-21.7108,165.8276,17.379999999999995,72,4,1.5,NC,1684949773
546,three points,32.0767,-111.3137,31.399999999999977,9,0,3.6,US,1684949773
547,saldanha,-33.0117,17.9442,14.009999999999991,88,46,6.77,ZA,1684949773
548,marshfield,44.6689,-90.1718,18.0,41,0,5.14,US,1684949758
549,agryz,56.5203,52.9942,18.41999999999996,50,19,1.81,RU,1684949727
550,yatou,37.15,122.3833,13.129999999999995,82,2,4.23,CN,1684949773
551,kangding,30.0513,101.9603,11.889999999999986,85,98,1.69,CN,1684949774
552,hadibu,12.65,54.0333,29.44999999999999,70,34,2.03,YE,1684949774
